[
        {
            "description": "Una de las paradas mas transitadas de la ciudad Valencia ",
            "name": "Metro Colón",
            "location": {
                "latitude": 39.47019720412093,
                "longitude": -0.3712449110803861
            }
                 
            
        },
        {
            "description": "Puente del siglo XV que ha sido reconstruido en varias ocasiones a lo largo de su historia. Actualmente es solo de acceso peatonal. Bonitas esculturas de San Pascual Bailón y la Virgen de los Desamparados, ambas reconstruidas en los años 40.",
            "name": "Plaza de la Reina",
            "location": {
                "latitude": 39.47489129999889,
                "longitude": -0.3743574445835548
            }
            
        },
        {
            "description": "Pareja de torres góticas defensivas, del siglo XV, que formaban parte de la muralla de la ciudad de Valencia.",
            "name": "Torres de Quart",
            "location": {
                "latitude": 39.476155518408966,
                "longitude": -0.38281142795324763
            }
        },
        {
            "description": "El concurrido barrio de El Carme es una zona del casco antiguo donde se encuentran las Torres de Serranos y las de Quart, antiguas puertas medievales que formaban parte de las murallas de la ciudad. Sus callejuelas contienen cafeterías, bares de tapas, boutiques de moda y tiendas de recuerdos. Las terrazas y las pistas de baile de sus numerosos bares nocturnos están siempre a rebosar. Entre los museos se incluyen el Instituto Valenciano de Arte Moderno, donde se exponen obras de artistas internacionales del siglo XX. ",
            "name": "El Carmen",
            "location": {
                "latitude": 39.47946883157968, 
                "longitude": -0.3808641979373022
            }
        },
        {
            "description": "Gran plaza de toros del siglo XIX que aún se utiliza para corridas, con museo y visitas guiadas.",
            "name": "Plaza de Toros de Valencia",
            "location": {
                "latitude": 39.46657930572367,  
                "longitude": -0.37622019850806215
            }
        },
        {
            "description": "Grandioso edificio, con elaboradas tallas de piedra, testimonio de la riqueza medieval de la ciudad.",
            "name": "La Lonja de la Seda",
            "location": {
                "latitude": 39.47457584923109,  
                "longitude": -0.37742991622110944
            }
        },
        {
            "description": "Museo con piezas ibéricas desde la Edad de Piedra hasta la época romana, extraídas en la región de Valencia.",
            "name": "Museo de Prehistoria de Valencia",
            "location": {
                "latitude": 39.4786880464082,  
                "longitude": -0.38177757496705755
            }
        }
]

